"X","province_state","country_region","last_update","confirmed","deaths","recovered","lon","lat","geoAddress"
1,"Hubei","Mainland China","2020-02-21 13:03:09",62662,2144,11881,112.2384017,30.7378118,"hubei, china"
2,"Guangdong","Mainland China","2020-02-21 10:13:09",1333,5,690,113.7632828,23.3790333,"guangdong province, china"
3,"Henan","Mainland China","2020-02-21 13:43:02",1267,19,736,113.3823545,34.2904302,"henan, china"
4,"Zhejiang","Mainland China","2020-02-21 10:23:02",1203,1,679,119.7889248,29.1416432,"zhejiang, china"
5,"Hunan","Mainland China","2020-02-21 15:13:07",1011,4,661,111.8568586,27.6252995,"hunan, china"
6,"Anhui","Mainland China","2020-02-21 10:13:09",988,6,539,117.9249002,30.6006773,"anhui, china"
7,"Jiangxi","Mainland China","2020-02-21 01:13:05",934,1,489,114.9042208,27.0874564,"jiangxi, china"
8,"Shandong","Mainland China","2020-02-21 10:23:02",749,4,281,117.9249002,35.8939566,"shandong, china"
9,"Jiangsu","Mainland China","2020-02-21 11:43:01",631,0,373,119.7889248,33.1401715,"jiangsu, china"
10,"Chongqing","Mainland China","2020-02-21 23:13:14",572,6,316,106.912251,29.4315861,"chongqing, china"
11,"Sichuan","Mainland China","2020-02-21 12:53:01",525,3,231,102.8054753,30.2638032,"sichuan, china"
12,"Heilongjiang","Mainland China","2020-02-21 11:43:01",479,12,175,128.738231,47.1216472,"heilongjiang, china"
13,"Beijing","Mainland China","2020-02-21 01:03:09",396,4,169,116.4073963,39.9041999,"beijing, china"
14,"Shanghai","Mainland China","2020-02-21 05:53:01",334,2,211,121.473701,31.230416,"shanghai, china"
15,"Hebei","Mainland China","2020-02-21 12:53:01",308,5,184,114.9042208,37.8956594,"hebei, china"
16,"Fujian","Mainland China","2020-02-21 11:43:01",293,1,149,117.9249002,26.4836842,"fujian, china"
17,"Guangxi","Mainland China","2020-02-21 11:43:01",246,2,97,108.8076195,23.7247599,"guangxi, china"
18,"Shaanxi","Mainland China","2020-02-21 11:43:01",245,1,134,109.1880047,35.3939908,"shaanxi, china"
19,"South Korea","South Korea","2020-02-21 13:43:02",204,2,16,127.766922,35.907757,"south korea"
20,"Yunnan","Mainland China","2020-02-21 06:23:04",174,2,96,101.3431058,24.4752847,"yunnan, china"
21,"Hainan","Mainland China","2020-02-21 10:13:09",168,4,95,109.949686,19.5663947,"hainan, china"
22,"Guizhou","Mainland China","2020-02-21 12:53:01",146,2,77,107.2902839,26.8429645,"guizhou, china"
23,"Shanxi","Mainland China","2020-02-21 23:33:06",132,0,78,111.8568586,37.2425649,"shanxi, china"
24,"Tianjin","Mainland China","2020-02-21 12:53:01",132,3,62,117.3616476,39.3433574,"tianjin, china"
25,"Liaoning","Mainland China","2020-02-21 01:33:02",121,1,61,122.5290376,41.9436543,"liaoning, china"
26,"Japan","Japan","2020-02-21 19:03:06",105,1,22,138.252924,36.204824,"japan"
27,"Gansu","Mainland China","2020-02-21 15:13:07",91,2,76,104.2861116,35.7518326,"gansu, china"
28,"Jilin","Mainland China","2020-02-21 10:13:09",91,1,45,126.549572,43.837883,"jilin city, jilin, china"
29,"Singapore","Singapore","2020-02-21 03:43:02",85,0,37,103.819836,1.352083,"singapore"
30,"Xinjiang","Mainland China","2020-02-21 13:43:02",76,1,24,87.5395855,42.5246357,"xinjiang, china"
31,"Inner Mongolia","Mainland China","2020-02-21 08:03:15",75,0,17,115.0594815,43.37822,"inner mongolia, china"
32,"Ningxia","Mainland China","2020-02-21 06:23:04",71,0,48,106.1580937,37.198731,"ningxia, china"
33,"Hong Kong","Hong Kong","2020-02-21 03:43:02",68,2,5,114.1693611,22.3193039,"hong kong"
34,"Thailand","Thailand","2020-02-21 18:53:02",35,0,17,100.992541,15.870032,"thailand"
35,"Taiwan","Taiwan","2020-02-21 06:53:03",26,1,2,120.960515,23.69781,"taiwan"
36,"Malaysia","Malaysia","2020-02-19 09:33:03",22,0,15,101.975766,4.210484,"malaysia"
37,"Italy","Italy","2020-02-21 23:33:06",20,1,0,12.56738,41.87194,"italy"
38,"Iran","Iran","2020-02-21 18:53:02",18,4,0,53.688046,32.427908,"iran"
39,"Qinghai","Mainland China","2020-02-21 04:43:02",18,0,18,96.4077358,35.744798,"qinghai, china"
40,"Germany","Germany","2020-02-21 23:03:13",16,0,14,10.451526,51.165691,"germany"
41,"Vietnam","Vietnam","2020-02-21 06:03:04",16,0,14,108.277199,14.058324,"vietnam"
42,"France","France","2020-02-15 20:53:02",12,1,4,2.213749,46.227638,"france"
43,"Ashland, NE","US","2020-02-21 23:23:06",11,0,0,-96.3683157,41.0393413,"ashland, ne 68003, usa"
44,"Macau","Macau","2020-02-20 02:13:19",10,0,6,113.543873,22.198745,"macao"
45,"UK","UK","2020-02-16 16:23:06",9,0,8,-3.435973,55.378051,"united kingdom"
46,"United Arab Emirates","United Arab Emirates","2020-02-16 20:43:02",9,0,4,53.847818,23.424076,"united arab emirates"
47,"British Columbia","Canada","2020-02-21 05:23:04",6,0,0,-127.6476205,53.7266683,"british columbia, canada"
48,"Queensland","Australia","2020-02-21 05:43:02",5,0,1,142.7027956,-20.9175738,"queensland, australia"
49,"Travis, CA","US","2020-02-21 23:23:06",5,0,0,-121.9290546,38.2683976,"690 airmen dr, travis afb, ca 94535, usa"
50,"From Diamond Princess","Australia","2020-02-21 23:03:13",4,0,0,-73.9614914,40.8642959,"fort lee, nj 07024, usa"
51,"New South Wales","Australia","2020-02-13 17:53:03",4,0,4,146.921099,-31.2532183,"new south wales, australia"
52,"Victoria","Australia","2020-02-13 17:53:03",4,0,4,-97.0035982,28.8052674,"victoria, tx, usa"
53,"India","India","2020-02-16 07:43:02",3,0,3,78.96288,20.593684,"india"
54,"Philippines","Philippines","2020-02-12 07:43:02",3,1,1,121.774017,12.879721,"philippines"
55,"South Australia","Australia","2020-02-17 08:13:09",2,0,2,136.2091547,-30.0002315,"south australia, australia"
56,"Toronto, ON","Canada","2020-02-21 05:23:04",2,0,2,-79.3831843,43.653226,"toronto, on, canada"
57,"Russia","Russia","2020-02-12 14:43:03",2,0,2,105.318756,61.52401,"russia"
58,"Spain","Spain","2020-02-15 17:23:04",2,0,2,-3.74922,40.463667,"spain"
59,"Chicago, IL","US","2020-02-09 19:03:03",2,0,2,-87.6297982,41.8781136,"chicago, il, usa"
60,"Lackland, TX","US","2020-02-21 23:23:06",2,0,0,-98.6134047,29.3829358,"w military dr, lackland afb, tx 78236, usa"
61,"San Benito, CA","US","2020-02-03 03:53:02",2,0,0,-120.9876321,36.5760883,"san benito county, ca, usa"
62,"San Diego County, CA","US","2020-02-21 05:43:02",2,0,1,-117.1610966,32.7157305,"san diego county, ca, usa"
63,"Santa Clara, CA","US","2020-02-21 05:23:04",2,0,1,-121.9552356,37.3541079,"santa clara, ca, usa"
64,"Belgium","Belgium","2020-02-17 04:23:06",1,0,1,4.469936,50.503887,"belgium"
65,"Cambodia","Cambodia","2020-02-12 07:43:02",1,0,1,104.990963,12.565679,"cambodia"
66,"London, ON","Canada","2020-02-12 18:53:03",1,0,1,-81.2452768,42.9849233,"london, on, canada"
67,"Egypt","Egypt","2020-02-21 18:53:02",1,0,0,30.802498,26.820553,"egypt"
68,"Finland","Finland","2020-02-12 00:03:12",1,0,1,25.7481511,61.92411,"finland"
69,"From Diamond Princess","Israel","2020-02-21 15:33:03",1,0,0,-73.9614914,40.8642959,"fort lee, nj 07024, usa"
70,"None","Lebanon","2020-02-21 15:33:03",1,0,0,-122.4318979,37.797695,"1980 union st, san francisco, ca 94123, usa"
71,"Tibet","Mainland China","2020-02-12 06:43:02",1,0,1,88.7878678,30.1533605,"tibet, china"
72,"Nepal","Nepal","2020-02-12 14:43:03",1,0,1,84.124008,28.394857,"nepal"
73,"Sri Lanka","Sri Lanka","2020-02-08 03:43:03",1,0,1,80.771797,7.873054,"sri lanka"
74,"Sweden","Sweden","2020-02-01 02:13:26",1,0,0,18.643501,60.128161,"sweden"
75,"Boston, MA","US","2020-02-01 19:43:03",1,0,0,-71.0588801,42.3600825,"boston, ma, usa"
76,"Humboldt County, CA","US","2020-02-21 05:13:09",1,0,0,-123.8695086,40.7450055,"humboldt county, ca, usa"
77,"Los Angeles, CA","US","2020-02-01 19:53:03",1,0,0,-118.2436849,34.0522342,"los angeles, ca, usa"
78,"Madison, WI","US","2020-02-05 21:53:02",1,0,0,-89.4012302,43.0730517,"madison, wi, usa"
79,"Orange, CA","US","2020-02-01 19:53:03",1,0,0,-117.8531007,33.7879139,"orange, ca, usa"
80,"Sacramento County, CA","US","2020-02-21 23:13:16",1,0,0,-121.3541631,38.47467,"sacramento county, ca, usa"
81,"San Antonio, TX","US","2020-02-13 18:53:02",1,0,0,-98.4936282,29.4241219,"san antonio, tx, usa"
82,"Seattle, WA","US","2020-02-09 07:03:04",1,0,1,-122.3320708,47.6062095,"seattle, wa, usa"
83,"Tempe, AZ","US","2020-02-01 19:43:03",1,0,0,-111.9400054,33.4255104,"tempe, az, usa"
